regId,lat,lon,regEn,regName,regSp,regUp,seq,stnF3,tmEd,tmSt
10000000,0.0,0.0,,전체,A,,1,0,210012310000,199001010000
11000000,0.0,0.0,,육상,A,,1,0,210012310000,199001010000
11A00000,0.0,0.0,,서해5도,A,11000000,1,0,210012310000,201501221100
11A00100,0.0,0.0,,서해5도,B,11A00000,1,0,210012310000,199001010000
11A00101,37.966099,124.630447,Baengnyeongdo,백령도,C,11A00100,1,102,210012310000,201610131800
11A00102,37.66720278,125.69385,,연평도,C,11A00100,1,0,210012310000,199001010000
11A00103,37.53031667,126.3384778,,소청도,C,11A00100,1,0,210012310000,199001010000
11B00000,0.0,0.0,,서울.인천.경기,A,11000000,1,0,210012310000,201101110800
11B000D1,37.69310556,127.00565,,북한.도봉산,D,11B00000,1,0,210012310000,200707250000
11B000D2,37.94246389,127.0894944,,소요산,D,11B00000,1,0,210012310000,200204240000
11B000D3,37.565575,127.547125,,용문산,D,11B00000,1,0,210012310000,200204240000
11B000D4,37.61966667,126.4303,,마니산,D,11B00000,1,0,210012310000,200204240000
11B001P0,0.0,0.0,,북한산,P,11B00000,1,0,210012310000,201501221100
11B001P1,37.6587,126.978,,북한산(정상),P,11B001P0,1,0,210012310000,202503051700
11B002P0,37.89833333,127.41444444,,연인산,P7,11B00000,1,0,210012310000,201002230000
11B002P1,37.89833333,127.41444444,,연인산(정상),P7,11B002P0,1,0,210012310000,201002230000
11B003P0,37.45777778,127.18972222,,남한산성,P7,11B00000,1,0,210012310000,201002230000
11B003P1,37.45777778,127.18972222,,남한산성(정상),P7,11B003P0,1,0,210012310000,201002230000
11B004P0,37.37305556,126.91361111,,수리산,P7,11B00000,1,0,210012310000,201002230000
11B004P1,37.37305556,126.91361111,,수리산(정상),P7,11B004P0,1,0,210012310000,201002230000
11B005P0,37.68111111,127.27472222,,천마산,P8,11B00000,1,0,210012310000,201002230000
11B005P1,37.68111111,127.27472222,,천마산(정상),P8,11B005P0,1,0,210012310000,201002230000
11B006P0,37.94138889,127.43138889,,명지산,P8,11B00000,1,0,210012310000,201002230000
11B006P1,37.9414,127.4321,,명지산(정상),P8,11B006P0,1,0,210012310000,202503051700
11B007P0,37.69916667,127.01583333,,도봉산,P9,11B00000,1,0,210012310000,201002230000
11B007P1,37.69916667,127.01583333,,도봉산(정상),P9,11B007P0,1,0,210012310000,201002230000
11B008P0,37.94444444,127.09333333,,소요산,P9,11B00000,1,0,210012310000,201002230000
11B008P1,37.9372,127.087,,소요산(정상),P9,11B008P0,1,0,210012310000,202503051700
11B009P0,37.87833333,127.32472222,,운악산,P9,11B00000,1,0,210012310000,201002230000
11B009P1,37.8768,127.3252,,운악산(정상),P9,11B009P0,1,0,210012310000,202503051700
11B010P0,37.56583333,127.54722222,,용문산,P9,11B00000,1,0,210012310000,201002230000
11B010P1,37.5611,127.5457,,용문산(정상),P9,11B010P0,1,0,210012310000,202503051700
11B011P0,37.41527778,127.04166667,,청계산,P9,11B00000,1,0,210012310000,201002230000
11B011P1,37.41527778,127.04166667,,청계산(정상),P9,11B011P0,1,0,210012310000,201002230000
11B012P0,37.61527778,126.43055556,,마니산,P9,11B00000,1,0,210012310000,201002230000
11B012P1,37.61527778,126.43055556,,마니산(정상),P9,11B012P0,1,0,210012310000,201002230000
11B013P0,37.9413,126.9697,,감악산,P9,11B00000,1,0,210012310000,202503051700
11B014P0,37.444469,126.9638972,,관악산,P9,11B00000,1,0,210012310000,202503051700
11B015P0,0.0,0.0,,백운산,P,11B00000,1,0,210012310000,202503051700
11B015P2,38.0749,127.4443,,백운산(포천),P9,11B015P0,1,0,210012310000,202503051700
11B016P0,37.5754,127.4868,,유명산,P9,11B00000,1,0,210012310000,202503051700
11B017P0,37.7526,127.3339,,축령산,P9,11B00000,1,0,210012310000,202503051700
11B018P0,0.0,0.0,,화악산,P,11B00000,1,0,210012310000,202503051700
11B018P2,37.9896,127.498416,,화악산(중봉),P9,11B018P0,1,0,210012310000,202503051700
11B10000,0.0,0.0,,서울(광역),A,11000000,1,0,210012310000,199001010000
11B10100,0.0,0.0,,서울(국지),B,11B10000,1,0,210012310000,199001010000
11B10101,37.56609444,126.9774167,Seoul,서울,C,11B10100,1,108,210012310000,201501221100
11B10102,37.42894444,126.9880167,,과천,C,11B10100,1,0,210012310000,201610131800
11B10103,37.47844167,126.8644361,,광명,C,11B10100,1,0,210012310000,201610131800
11B20000,0.0,0.0,,경기도,A,11000000,1,0,210012310000,199001010000
11B20100,0.0,0.0,,경기북부서해안,B,11B20000,1,0,210012310000,199001010000
11B20101,37.707424,126.446571,,강화,C,11B20100,1,0,210012310000,201610131800
11B20102,37.61444722,126.7197306,,김포,C,11B20100,1,0,210012310000,201610131800
11B20200,0.0,0.0,,인천.경기남부서해안,B,11B20000,1,0,210012310000,199001010000
11B20201,37.477501,126.62458,Incheon,인천,C,11B20200,1,112,210012310000,201501221100
11B20202,37.37993611,126.8038,,시흥,C,11B20200,1,0,210012310000,201610131800
11B20203,37.32045556,126.8293028,,안산,C,11B20200,1,0,210012310000,201610131800
11B20204,37.50318056,126.7660028,,부천,C,11B20200,1,0,210012310000,201610131800
11B20300,0.0,0.0,,경기북서내륙,B,11B20000,1,0,210012310000,199001010000
11B20301,37.73738056,127.0342278,,의정부,C,11B20300,1,0,210012310000,201610131800
11B20302,37.65725,126.8322806,,고양,C,11B20300,1,0,210012310000,201610131800
11B20304,37.78399444,127.0468944,,양주,C,11B20300,1,0,210012310000,201610131800
11B20305,37.85548333,126.7879917,Paju,파주,C,11B20300,1,99,210012310000,201501221100
11B20400,0.0,0.0,,경기북동내륙,B,11B20000,1,0,210012310000,199001010000
11B20401,37.90318889,127.0621306,Dongducheon,동두천,C,11B20400,1,98,210012310000,201610131800
11B20402,37.97428056,126.7559667,,연천,C,11B20400,1,0,210012310000,201610131800
11B20403,37.89391389,127.2005694,,포천,C,11B20400,1,0,210012310000,201610131800
11B20404,37.827025,127.5035333,,가평,C,11B20400,1,0,210012310000,201610131800
11B20500,0.0,0.0,,경기중부내륙,B,11B20000,1,0,210012310000,199001010000
11B20501,37.59436667,127.129425,,구리,C,11B20500,1,0,210012310000,201610131800
11B20502,37.635425,127.2167361,,남양주,C,11B20500,1,0,210012310000,201610131800
11B20503,37.48842778,127.4947083,,양평,C,11B20500,1,0,210012310000,201610131800
11B20504,37.53944722,127.5394472,,하남,C,11B20500,1,0,210012310000,201610131800
11B20600,0.0,0.0,,경기남서내륙,B,11B20000,1,0,210012310000,199001010000
11B20601,37.272293,126.985367,Suwon,수원,C,11B20600,1,119,210012310000,201501221100
11B20602,37.39327778,126.9561972,,안양,C,11B20600,1,0,210012310000,201610131800
11B20603,37.15130278,127.0757083,,오산,C,11B20600,1,0,210012310000,201610131800
11B20604,37.19773611,126.8294222,,화성,C,11B20600,1,0,210012310000,201610131800
11B20605,37.44468611,127.1386694,,성남,C,11B20600,1,0,210012310000,201610131800
11B20606,36.99145556,127.1127111,,평택,C,11B20600,1,0,210012310000,201610131800
11B20609,37.345125,126.9684222,,의왕,C,11B20600,1,0,210012310000,201610131800
11B20610,37.36138333,126.9349167,,군포,C,11B20600,1,0,210012310000,201610131800
11B20611,37.0087,127.2672,,안성,C,11B20600,1,0,210012310000,201610131800
11B20612,37.23251667,127.1991611,,용인,C,11B20600,1,0,210012310000,201610131800
11B20700,0.0,0.0,,경기남동내륙,B,11B20000,1,0,210012310000,199001010000
11B20701,37.263981,127.4842,,이천,C,11B20700,1,0,210012310000,201610131800
11B20702,37.41598056,127.2564222,,광주,C,11B20700,1,0,210012310000,201610131800
11B20703,37.3,127.65,,여주,C,11B20700,1,0,210012310000,201610131800
11BD0000,0.0,0.0,,서울경기.강원영서,0,11000000,1,0,210012310000,199001010000
11C00000,0.0,0.0,,충청도,A,11000000,1,0,210012310000,199001010000
11C000D1,36.34701667,127.2034361,,계룡산,D,11C00000,1,0,210012310000,199001010000
11C000D2,36.548225,127.8732889,,속리산,D,11C00000,1,0,210012310000,199001010000
11C000D3,36.96260833,128.4867639,,소백산,D,11C00000,1,0,210012310000,199001010000
11C000D4,36.89019722,128.1077917,,월악산,D,11C00000,1,0,210012310000,199001010000
11C000D5,35.82402222,128.121325,,가야산,D,11C00000,1,0,210012310000,200204240000
11C000D6,36.044575,127.8499639,,민주지산,D,11C00000,1,0,210012310000,200204240000
11C000E1,0.0,0.0,,옥천-김천,E,11C00000,1,0,210012310000,199001010000
11C000E2,0.0,0.0,,진천-남이,E,11C00000,1,0,210012310000,199001010000
11C001P0,0.0,0.0,,계룡산,P,11C00000,1,0,210012310000,200912080000
11C001P1,36.3423,127.2057,,계룡산(정상),P,11C001P0,1,0,210012310000,202503051700
11C002P0,0.0,0.0,,속리산,P,11C00000,1,0,210012310000,200912080000
11C002P1,36.54328611,127.8708556,,속리산(정상),P,11C002P0,1,0,210012310000,200912080000
11C003P0,0.0,0.0,,월악산,P,11C00000,1,0,210012310000,200912080000
11C003P1,36.88611389,128.1057361,,월악산(정상),P,11C003P0,1,0,210012310000,200912080000
11C004P0,36.42194444,126.8475,,칠갑산,P7,11C00000,1,0,210012310000,201002230000
11C004P1,36.4129,126.8848,,칠갑산(정상),P7,11C004P0,1,0,210012310000,202503051700
11C005P0,36.68777778,127.0275,,광덕산(천안),P9,11C00000,1,0,210012310000,201002230000
11C005P1,36.68777778,127.0275,,광덕산(천안정상),P9,11C005P0,1,0,210012310000,201002230000
11C006P0,36.04,127.84888889,,민주지산,P9,11C00000,1,0,210012310000,201002230000
11C006P1,36.04,127.84888889,,민주지산(정상),P9,11C006P0,1,0,210012310000,201002230000
11C007P0,0.0,0.0,,덕숭산,P,11C00000,1,0,210012310000,202503051700
11C007P2,36.6715,126.624,,덕숭산(수덕산),P7,11C007P0,1,0,210012310000,202503051700
11C008P0,36.2207,127.5383,,서대산,P9,11C00000,1,0,210012310000,202503051700
11C009P0,36.9848,128.2567,,금수산,P9,11C00000,1,0,210012310000,202503051700
11C010P0,36.8564,128.3111,,도락산,P9,11C00000,1,0,210012310000,202503051700
11C011P0,36.1592,127.5999,,천태산,P9,11C00000,1,0,210012310000,202503051700
11C10000,0.0,0.0,,충청북도,A,11000000,1,0,210012310000,201507061100
11C10100,0.0,0.0,,충북북서내륙,B,11C10000,1,0,210012310000,199001010000
11C10101,36.970154,127.952759,Chungju,충주,C,11C10100,1,127,210012310000,201610131800
11C10102,36.85810556,127.4371111,,진천,C,11C10100,1,0,210012310000,201610131800
11C10103,36.94051667,127.69125,,음성,C,11C10100,1,0,210012310000,201610131800
11C10200,0.0,0.0,,충북북동내륙,B,11C10000,1,0,210012310000,199001010000
11C10201,37.13311667,128.1860278,,제천,C,11C10200,1,0,210012310000,201610131800
11C10202,36.98929444,128.3581611,,단양,C,11C10200,1,0,210012310000,201610131800
11C10300,0.0,0.0,,충북중부내륙,B,11C10000,1,0,210012310000,199001010000
11C10301,36.63924,127.440659,Cheongju,청주,C,11C10300,1,131,210012310000,201501221100
11C10302,36.4888,127.7292389,,보은,C,11C10300,1,0,210012310000,201610131800
11C10303,36.81514167,127.7873,,괴산,C,11C10300,1,0,210012310000,201610131800
11C10304,36.777975,127.5841389,,증평,C,11C10300,1,0,210012310000,201610131800
11C10400,0.0,0.0,,충북남부내륙,B,11C10000,1,0,210012310000,199001010000
11C10401,36.21470556,127.9986972,Chupungnyeong,추풍령,C,11C10400,1,135,210012310000,201610131800
11C10402,36.17927222,127.7827806,,영동,C,11C10400,1,0,210012310000,201610131800
11C10403,36.30584722,127.5715389,,옥천,C,11C10400,1,0,210012310000,201610131800
11C20000,0.0,0.0,,충청남도,A,11000000,1,0,210012310000,199001010000
11C20100,0.0,0.0,,충남북부서해안,B,11C20000,1,0,210012310000,199001010000
11C20101,36.78314167,126.4499778,Seosan,서산,C,11C20100,1,129,210012310000,201501221100
11C20102,36.74471944,126.2984694,,태안,C,11C20100,1,0,210012310000,201610131800
11C20103,36.89178611,126.6229528,,당진,C,11C20100,1,0,210012310000,201610131800
11C20104,36.59989167,126.6632417,,홍성,C,11C20100,1,0,210012310000,201610131800
11C20105,37.41253611,128.1560333,,안흥,C,11C20100,1,0,210012310000,199001010000
11C20200,0.0,0.0,,충남남부서해안,B,11C20000,1,0,210012310000,199001010000
11C20201,36.33378056,126.6111333,,보령,C,11C20200,1,0,210012310000,201610131800
11C20202,36.08142778,126.6918333,,서천,C,11C20200,1,0,210012310000,201610131800
11C20300,0.0,0.0,,충남북부내륙,B,11C20000,1,0,210012310000,199001010000
11C20301,36.80682222,127.1503806,,천안,C,11C20300,1,0,210012310000,201610131800
11C20302,36.78672222,127.0026722,,아산,C,11C20300,1,0,210012310000,201610131800
11C20303,36.6778,126.8,,예산,C,11C20300,1,0,210012310000,201610131800
11C20400,0.0,0.0,,대전·세종·충남중부내륙,B,11C20000,1,0,210012310000,201207020000
11C20401,36.34914444,127.3843389,Daejeon,대전,C,11C20400,1,133,210012310000,199001010000
11C20402,36.45636667,127.1231361,,공주,C,11C20400,1,0,210012310000,201610131800
11C20403,36.3,127.23,,계룡,C,11C20400,1,0,210012310000,201610131800
11C20404,36.57,127.27,,세종,C,11C20400,1,0,210012310000,201207020000
11C20500,0.0,0.0,,충남남서내륙,B,11C20000,1,0,210012310000,199001010000
11C20501,36.27525,126.909675,,부여,C,11C20500,1,0,210012310000,201610131800
11C20502,36.45886111,126.8029333,,청양,C,11C20500,1,0,210012310000,201610131800
11C20600,0.0,0.0,,충남남동내륙,B,11C20000,1,0,210012310000,199001010000
11C20601,36.10863889,127.4887556,,금산,C,11C20600,1,0,210012310000,201610131800
11C20602,36.18795833,127.0946722,,논산,C,11C20600,1,0,210012310000,201610131800
11D00000,0.0,0.0,,강원도,A,11000000,1,0,210012310000,199001010000
11D000D1,38.12379167,128.4191972,,설악산,D,11D00000,1,0,210012310000,199001010000
11D000D2,35.40759444,127.0484444,,광덕산,D,11D00000,1,0,210012310000,199001010000
11D000D4,37.84350278,127.6607889,,삼악산,D,11D00000,1,0,210012310000,199001010000
11D000D5,37.42822222,129.0037833,,두타산,D,11D00000,1,0,210012310000,199001010000
11D000D6,37.10312222,128.9206472,,태백산,D,11D00000,1,0,210012310000,199001010000
11D000D7,37.79881667,128.54355,,오대산,D,11D00000,1,0,210012310000,199001010000
11D000D8,38.23087222,127.5407389,,대성산,D,11D00000,1,0,210012310000,199001010000
11D000D9,35.10970556,127.6197194,,백운산,D,11D00000,1,0,210012310000,199001010000
11D000DA,37.36929167,128.0573472,,치악산,D,11D00000,1,0,210012310000,199001010000
11D000DB,36.16235833,127.5997278,,천태산,D,11D00000,1,0,210012310000,199001010000
11D000DC,37.60819167,128.2880667,,태기산,D,11D00000,1,0,210012310000,199001010000
11D000DD,37.46576667,128.5645333,,가리왕산,D,11D00000,1,0,210012310000,199001010000
11D000DE,37.43929167,128.975725,,청옥산,D,11D00000,1,0,210012310000,199001010000
11D000E1,0.0,0.0,,둔내-삽교,E,11D00000,1,0,210012310000,199001010000
11D000E2,0.0,0.0,,장평-대관령,E,11D00000,1,0,210012310000,199001010000
11D001P0,0.0,0.0,,설악산,P,11D00000,1,0,210012310000,200912080000
11D001P1,38.11916944,128.47,,설악산(정상),P,11D001P0,1,0,210012310000,200912080000
11D001P2,38.1609,128.4855528,,설악산(권금성대피소),P,11D001P0,1,0,210012310000,200912080000
11D002P0,0.0,0.0,,오대산,P,11D00000,1,0,210012310000,200912080000
11D002P1,37.7941,128.5431,,오대산(정상),P,11D002P0,1,0,210012310000,202503051700
11D002P2,37.7,128.6041667,,오대산(탐방센터),P,11D002P0,1,0,210012310000,200912080000
11D003P0,0.0,0.0,,치악산,P,11D00000,1,0,210012310000,201501221100
11D003P1,37.36516667,128.05561111,,치악산(정상),P,11D003P0,1,0,210012310000,201501221100
11D003P2,37.41413889,128.05038889,,치악산(구룡탐방센터),P,11D003P0,1,0,210012310000,201501221100
11D004P0,37.09638889,128.91583333,,태백산,P7,11D00000,1,0,210012310000,201002230000
11D004P1,37.0964,128.9161,,태백산(정상),P7,11D004P0,1,0,210012310000,202503051700
11D005P0,37.77222222,128.22722222,,아미산,P8,11D00000,1,0,210012310000,201002230000
11D005P1,37.77222222,128.22722222,,아미산(정상),P8,11D005P0,1,0,210012310000,201002230000
11D006P0,38.11619,127.43198,,광덕산,P9,11D00000,1,0,210012310000,201002230000
11D006P1,38.11619,127.43198,,광덕산(정상),P9,11D006P0,1,0,210012310000,201002230000
11D007P0,37.83722222,127.66694444,,삼악산,P9,11D00000,1,0,210012310000,201002230000
11D007P1,37.8398,127.6605,,삼악산(정상),P9,11D007P0,1,0,210012310000,202503051700
11D008P0,37.69583333,127.69611111,,팔봉산,P9,11D00000,1,0,210012310000,201002230000
11D008P1,37.6959,127.6966,,팔봉산(정상),P9,11D008P0,1,0,210012310000,202503051700
11D009P0,37.60194444,128.28555556,,태기산,P9,11D00000,1,0,210012310000,201002230000
11D009P1,37.60194444,128.28555556,,태기산(정상),P9,11D009P0,1,0,210012310000,201002230000
11D010P0,37.46222222,128.56305556,,가라왕산,P9,11D00000,1,0,210012310000,201002230000
11D010P1,37.46222222,128.56305556,,가라왕산(정상),P9,11D010P0,1,0,210012310000,201002230000
11D011P0,37.43388889,128.97083333,,청옥산,P9,11D00000,1,0,210012310000,201002230000
11D011P1,37.43388889,128.97083333,,청옥산(정상),P9,11D011P0,1,0,210012310000,201002230000
11D012P0,37.42638889,129.00388889,,두타산,P9,11D00000,1,0,210012310000,201002230000
11D012P1,37.4264,129.0047,,두타산(정상),P9,11D012P0,1,0,210012310000,202503051700
11D013P0,37.8711,127.9564,,가리산,P9,11D00000,1,0,210012310000,202503051700
11D014P0,37.7283,128.4659,,계방산,P9,11D00000,1,0,210012310000,202503051700
11D015P0,37.7152,128.0101,,공작산,P9,11D00000,1,0,210012310000,202503051700
11D016P0,38.211,128.1348,,대암산,P9,11D00000,1,0,210012310000,202503051700
11D017P0,37.3087,129.0125,,덕항산,P8,11D00000,1,0,210012310000,202503051700
11D018P0,38.1043,127.338,,명성산,P9,11D00000,1,0,210012310000,202503051700
11D019P0,37.8883,128.39,,방태산,P9,11D00000,1,0,210012310000,202503051700
11D020P0,37.3965,128.2936,,백덕산,P9,11D00000,1,0,210012310000,202503051700
11D021P0,0.0,0.0,,백운산,P,11D00000,1,0,210012310000,202503051700
11D021P2,37.2801,128.5961,,백운산(정선),P9,11D021P0,1,0,210012310000,202503051700
11D022P0,38.0006,127.8041,,오봉산,P9,11D00000,1,0,210012310000,202503051700
11D023P0,38.0382,127.7473,,용화산,P9,11D00000,1,0,210012310000,202503051700
11D024P0,37.0765,129.2302,,응봉산,P8,11D00000,1,0,210012310000,202503051700
11D025P0,38.0487,128.4254,,점봉산,P9,11D00000,1,0,210012310000,202503051700
11D026P0,37.1175,128.4852,,태화산,P9,11D00000,1,0,210012310000,202503051700
11D10000,0.0,0.0,,강원영서,A,11000000,1,0,210012310000,201501221100
11D10100,0.0,0.0,,강원북서내륙,B,11D10000,1,0,210012310000,199001010000
11D10101,38.14524444,127.3099528,Cheorwon,철원,C,11D10100,1,95,210012310000,201610131800
11D10102,38.10594167,127.7047,,화천,C,11D10100,1,0,210012310000,201610131800
11D10200,0.0,0.0,,강원북동내륙,B,11D10000,1,0,210012310000,199001010000
11D10201,38.06893889,128.1703889,,인제,C,11D10200,1,0,210012310000,201610131800
11D10202,38.11140278,127.9915972,,양구,C,11D10200,1,0,210012310000,201610131800
11D10300,0.0,0.0,,강원중부내륙,B,11D10000,1,0,210012310000,199001010000
11D10301,37.88135,127.7303972,Chuncheon,춘천,C,11D10300,1,101,210012310000,201501221100
11D10302,37.69771667,127.8894139,,홍천,C,11D10300,1,0,210012310000,201610131800
11D10400,0.0,0.0,,강원남서내륙,B,11D10000,1,0,210012310000,199001010000
11D10401,37.35058333,127.9443167,Wonju,원주,C,11D10400,1,114,210012310000,201501221100
11D10402,37.49147778,127.9842972,,횡성,C,11D10400,1,0,210012310000,201610131800
11D10403,37.26744444,128.0233222,,치악,C,11D10400,1,0,210012310000,199001010000
11D10500,0.0,0.0,,강원남동내륙,B,11D10000,1,0,210012310000,199001010000
11D10501,37.18355833,128.4686778,Yeongwol,영월,C,11D10500,1,121,210012310000,201610131800
11D10502,37.38161111,128.6621667,,정선,C,11D10500,1,0,210012310000,201610131800
11D10503,37.37021111,128.3924889,,평창,C,11D10500,1,0,210012310000,201610131800
11D10504,37.6161,128.3834,,봉평,C,11D10500,1,0,210012310000,200809110000
11D20000,0.0,0.0,,강원영동,A,11000000,1,0,210012310000,199001010000
11D20100,0.0,0.0,,강원북부산지,B,11D20000,1,0,210012310000,201701130000
11D20101,38.1259,128.4207361,,설악,C,11D20100,1,0,210012310000,199001010000
11D20200,0.0,0.0,,강원중부산지,B,11D20000,1,0,210012310000,201701130000
11D20201,37.69144167,128.7605556,Daegwallyeong,대관령,C,11D20200,1,100,210012310000,201610131800
11D20202,37.63741111,128.5530667,,진부,C,11D20200,1,0,210012310000,199001010000
11D20300,0.0,0.0,,강원남부산지,B,11D20000,1,0,210012310000,201701130000
11D20301,37.16346667,128.9882028,,태백,C,11D20300,1,0,210012310000,201610131800
11D20400,0.0,0.0,,강원북부동해안,B,11D20000,1,0,210012310000,199001010000
11D20401,38.20719722,128.5922333,Sokcho,속초,C,11D20400,1,90,210012310000,201610131800
11D20402,38.38275833,128.4674944,,고성,C,11D20400,1,0,210012310000,201610131800
11D20403,38.07529444,128.6186694,,양양,C,11D20400,1,0,210012310000,201610131800
11D20500,0.0,0.0,,강원중부동해안,B,11D20000,1,0,210012310000,199001010000
11D20501,37.75072778,128.8769944,Gangneung,강릉,C,11D20500,1,105,210012310000,199001010000
11D20600,0.0,0.0,,강원남부동해안,B,11D20000,1,0,210012310000,199001010000
11D20601,37.52471389,129.1146472,Donghae,동해,C,11D20600,1,106,210012310000,201610131800
11D20602,37.44228333,129.1659306,,삼척,C,11D20600,1,0,210012310000,201610131800
11D20603,37.54696111,129.1077611,,묵호,C,11D20600,1,0,210012310000,199001010000
11E00000,0.0,0.0,,울릉도.독도,A,11000000,1,0,210012310000,199001010000
11E000D1,37.50749167,130.8608722,,성인봉,D,11E00000,1,0,210012310000,199001010000
11E00100,0.0,0.0,,울릉.독도,B,11E00000,1,0,210012310000,199001010000
11E00101,37.481007,130.898895,Ulleungdo,울릉도,C,11E00100,1,115,210012310000,201610131800
11E00102,37.2357,131.8794,,독도,C,11E00100,1,0,210012310000,201610131800
11F00000,0.0,0.0,,전라도,A,11000000,1,0,210012310000,199001010000
11F000D1,35.12905,127.0075778,,무등산,D,11F00000,1,0,210012310000,199001010000
11F000D2,35.48235,126.8884111,,내장산,D,11F00000,1,0,210012310000,199001010000
11F000D3,35.86058611,127.74845,,덕유산,D,11F00000,1,0,210012310000,199001010000
11F000D4,35.29749167,127.5316722,,지리산(서부),D,11F00000,1,0,210012310000,199001010000
11F000D5,34.46400556,126.3188861,,첨찰산,D,11F00000,1,0,210012310000,200201010000
11F000E1,0.0,0.0,,익산-광주,E,11F00000,1,0,210012310000,200207260000
11F000E2,0.0,0.0,,광주-광양,E,11F00000,1,0,210012310000,200207260000
11F000E3,0.0,0.0,,광주-남원,E,11F00000,1,0,210012310000,200207260000
11F000E4,0.0,0.0,,군산-영광,E,11F00000,1,0,210012310000,200207260000
11F000E5,0.0,0.0,,영광-목포,E,11F00000,1,0,210012310000,200207260000
11F001P0,0.0,0.0,,월출산,P,11F00000,1,0,210012310000,200912080000
11F001P1,34.7667,126.7041,,월출산(정상),P,11F001P0,1,0,210012310000,202503051700
11F001P2,34.77527778,126.7219444,,월출산(관리사무소),P,11F001P0,1,0,210012310000,200912080000
11F002P0,0.0,0.0,,지리산(서부),P,11F00000,1,0,210012310000,200912080000
11F003P0,0.0,0.0,,내장산,P,11F00000,1,0,210012310000,200912080000
11F003P1,35.47832,126.88919,,내장산(정상),P,11F003P0,1,0,210012310000,202503051700
11F004P0,0.0,0.0,,덕유산,P,11F00000,1,0,210012310000,200912080000
11F004P1,35.85906667,127.7458389,,덕유산(정상),P,11F004P0,1,0,210012310000,200912080000
11F005P0,36.11638889,127.36055556,,대둔산,P7,11F00000,1,0,210012310000,201002230000
11F005P1,36.1234,127.3193,,대둔산(정상),P7,11F005P0,1,0,210012310000,202503051700
11F006P0,35.76027778,127.415,,마이산,P7,11F00000,1,0,210012310000,201002230000
11F006P1,35.760902,127.412018,,마이산(정상),P7,11F006P0,1,0,210012310000,202503051700
11F007P0,35.72861111,127.08527778,,모악산,P7,11F00000,1,0,210012310000,201002230000
11F007P1,35.72861111,127.08527778,,모악산(정상),P7,11F007P0,1,0,210012310000,201002230000
11F008P0,35.5175,126.57694444,,선운산,P7,11F00000,1,0,210012310000,201002230000
11F008P1,35.5175,126.57694444,,선운산(정상),P7,11F008P0,1,0,210012310000,201002230000
11F009P0,35.12111111,127.00472222,,무등산,P7,11F00000,1,0,210012310000,201002230000
11F009P1,35.12111111,127.00472222,,무등산(정상),P7,11F009P0,1,0,210012310000,201002230000
11F010P0,35.00166667,127.31333333,,조계산,P7,11F00000,1,0,210012310000,201002230000
11F010P1,35.00166667,127.31333333,,조계산(정상),P7,11F010P0,1,0,210012310000,201002230000
11F011P0,34.61694444,127.43527778,,팔영산,P7,11F00000,1,0,210012310000,201002230000
11F011P1,34.61694444,127.4361111,,팔영산(정상),P7,11F011P0,1,0,210012310000,202503051700
11F012P0,34.5175,126.57694444,,천관산,P7,11F00000,1,0,210012310000,201002230000
11F012P1,34.53284,126.9158,,천관산(정상),P7,11F012P0,1,0,210012310000,202503051700
11F013P0,34.48916667,126.61611111,,두륜산,P7,11F00000,1,0,210012310000,201002230000
11F013P1,34.4718,126.6376,,두륜산(정상),P7,11F013P0,1,0,210012310000,202503051700
11F014P0,35.62861111,127.59527778,,장안산,P8,11F00000,1,0,210012310000,201002230000
11F014P1,35.62861111,127.59527778,,장안산(정상),P8,11F014P0,1,0,210012310000,201002230000
11F015P0,35.40333333,127.04777778,,강천산,P8,11F00000,1,0,210012310000,201002230000
11F015P1,35.40333333,127.04777778,,강천산(정상),P8,11F015P0,1,0,210012310000,201002230000
11F016P0,35.37138889,127.57777778,,지리산(북부),P9,11F00000,1,0,210012310000,201002230000
11F016P2,35.37138889,127.57777778,,지리산(뱀사골),P9,11F016P0,1,0,210012310000,201002230000
11F017P0,35.10638889,127.62166667,,백운산,P9,11F00000,1,0,210012310000,201002230000
11F017P1,35.10638889,127.62166667,,백운산(정상),P9,11F017P0,1,0,210012310000,201002230000
11F018P0,34.47638889,126.32138889,,첨철산,P9,11F00000,1,0,210012310000,201002230000
11F018P1,34.47638889,126.32138889,,첨철산(정상),P9,11F018P0,1,0,210012310000,201002230000
11F019P0,35.124,127.0089,,무등산,P,11F00000,1,0,210012310000,201301250000
11F019P1,35.124,127.0089,,무등산(정상),P,11F019P0,1,0,210012310000,201301250000
11F020P0,34.6971,125.2042,,깃대봉,P9,11F00000,1,0,210012310000,202503051700
11F021P0,35.448167,126.759916,,방장산,P9,11F00000,1,0,210012310000,202503051700
11F022P0,35.4001,126.9763,,추월산,P9,11F00000,1,0,210012310000,202503051700
11F023P0,35.4607,126.8688,,백암산,P9,11F00000,1,0,210012310000,202503051700
11F024P0,0.0,0.0,,변산,P,11F00000,1,0,210012310000,202503051700
11F024P2,35.6231039,126.5826264,,변산(관음봉),P9,11F024P0,1,0,210012310000,202503051700
11F025P0,35.9114,127.3576,,운장산,P9,11F00000,1,0,210012310000,202503051700
11F026P0,0.0,0.0,,적상산,P,11F00000,1,0,210012310000,202503051700
11F026P2,35.9566118,127.6870102,,적상산(향로봉),P9,11F026P0,1,0,210012310000,202503051700
11F10000,0.0,0.0,,전북자치도,A,11000000,1,0,210012310000,202405301100
11F10200,0.0,0.0,,전북중부내륙,B,11F10000,1,0,210012310000,199001010000
11F10201,35.82382222,127.1520167,Jeonju,전주,C,11F10200,1,146,210012310000,200902010000
11F10202,35.94768889,126.9572389,,익산,C,11F10200,1,0,210012310000,201610131800
11F10203,35.56986667,126.8554556,,정읍,C,11F10200,1,0,210012310000,201610131800
11F10204,35.9044,127.1619,,완주,C,11F10200,1,0,210012310000,201610131800
11F10300,0.0,0.0,,전북북동내륙,B,11F10000,1,0,210012310000,199001010000
11F10301,35.64680556,127.5210694,,장수,C,11F10300,1,0,210012310000,201610131800
11F10302,36.00741667,127.6592861,,무주,C,11F10300,1,0,210012310000,201610131800
11F10303,35.79163056,127.4247833,,진안,C,11F10300,1,0,210012310000,201610131800
11F10400,0.0,0.0,,전북남동내륙,B,11F10000,1,0,210012310000,199001010000
11F10401,35.41610833,127.3906722,,남원,C,11F10400,1,0,210012310000,201610131800
11F10402,35.61070278,127.2818778,,임실,C,11F10400,1,0,210012310000,201610131800
11F10403,35.37459444,127.1369417,,순창,C,11F10400,1,0,210012310000,201610131800
11F20000,0.0,0.0,,전라남도,A,11000000,1,0,210012310000,199001010000
11F20300,0.0,0.0,,전남서부남해안,B,11F20000,1,0,210012310000,199001010000
11F20301,34.39587,126.701836,Wando,완도,C,11F20300,1,170,210012310000,201610131800
11F20302,34.57273333,126.5905944,,해남,C,11F20300,1,0,210012310000,201610131800
11F20303,34.64201667,126.7672278,,강진,C,11F20300,1,0,210012310000,201610131800
11F20304,34.68233611,126.9095472,,장흥,C,11F20300,1,0,210012310000,201610131800
11F20305,34.30902222,126.7573528,,완도항,C,11F20300,1,0,210012310000,199001010000
11F20400,0.0,0.0,,전남동부남해안,B,11F20000,1,0,210012310000,199001010000
11F20401,34.758575,127.6619472,Yeosu,여수,C,11F20400,1,168,210012310000,201501221100
11F20402,34.94076111,127.6960611,,광양,C,11F20400,1,0,210012310000,201610131800
11F20403,34.61268333,127.2822139,,고흥,C,11F20400,1,0,210012310000,201610131800
11F20404,34.77115278,127.0800333,,보성,C,11F20400,1,0,210012310000,201610131800
11F20405,35.074982,127.239113,,순천시,C,11F20400,1,0,210012310000,201610131800
11F20406,34.74772222,127.7466889,,여수항,C,11F20400,1,0,210012310000,199001010000
11F20407,34.52414444,127.1460722,,녹동항,C,11F20400,1,0,210012310000,199001010000
11F20500,0.0,0.0,,광주.전남중부내륙,B,11F20000,1,0,210012310000,199001010000
11F20501,35.16128056,126.9158417,Gwangju,광주,C,11F20500,1,156,210012310000,199001010000
11F20502,35.30156944,126.7853917,,장성,C,11F20500,1,0,210012310000,201610131800
11F20503,35.01611667,126.7100278,,나주,C,11F20500,1,0,210012310000,201610131800
11F20504,35.323025,126.99675,,담양,C,11F20500,1,0,210012310000,201610131800
11F20505,35.0644,126.9866,,화순,C,11F20500,1,0,210012310000,201610131800
11F20600,0.0,0.0,,전남동부내륙,B,11F20000,1,0,210012310000,199001010000
11F20601,35.19909722,127.4639194,,구례,C,11F20600,1,0,210012310000,201610131800
11F20602,35.28150556,127.2921861,,곡성,C,11F20600,1,0,210012310000,201610131800
11F20603,35.07691389,127.2351806,,순천,C,11F20600,1,0,210012310000,201610131800
11F20700,0.0,0.0,,흑산도.홍도,B,11F20000,1,0,210012310000,199001010000
11F20701,34.687176,125.451042,Heuksando,흑산도,C,11F20700,1,169,210012310000,201610131800
11G00000,0.0,0.0,,제주도,A,11000000,1,0,210012310000,199001010000
11G000D1,0.0,0.0,,한라산,D,11G00000,1,0,210012310000,200707250000
11G00100,0.0,0.0,,제주동부,B,11G00000,1,0,210012310000,199001010000
11G00101,33.38220833,126.8796833,,성산,C,11G00100,1,188,210012310000,201610131800
11G001P0,0.0,0.0,,한라산(동부),P,11G00000,1,0,210012310000,200912080000
11G001P1,33.36098333,126.5355806,,한라산(정상),P,11G001P0,1,0,210012310000,200912080000
11G001P2,33.39225278,126.4855056,,한라산(성판악),P,11G001P0,1,0,210012310000,200912080000
11G00200,0.0,0.0,,제주북부,B,11G00000,1,0,210012310000,199001010000
11G00201,33.486275,126.4979528,Jeju,제주,C,11G00200,1,184,210012310000,199001010000
11G00202,33.53933056,126.6316028,,제주항,C,11G00200,1,0,210012310000,199001010000
11G002P0,0.0,0.0,,한라산(서부),P,11G00000,1,0,210012310000,200912080000
11G00300,0.0,0.0,,제주산지,B,11G00000,1,0,210012310000,201701130000
11G00302,33.3813,126.6214,,성판악,C,11G00300,1,0,210012310000,201610131800
11G00400,0.0,0.0,,제주남부,B,11G00000,1,0,210012310000,199001010000
11G00401,33.24612,126.565331,Seogwipo,서귀포,C,11G00400,1,189,210012310000,201501221100
11G00500,0.0,0.0,,제주서부,B,11G00000,1,0,210012310000,199001010000
11G00501,33.293835,126.162827,Jeju-Gosan,고산,C,11G00500,1,185,210012310000,201610131800
11G00600,32.12295278,125.1824472,,이어도,B,11G00000,1,189,210012310000,201212311100
11G00601,32.12295278,125.1824472,Ieodo,이어도,C,11G00600,1,189,210012310000,201610131800
11G00700,0.0,0.0,,방재용 시험,B,11G00000,1,0,210012310000,201405070000
11G00800,33.9623,126.2978,,추자도,C,11G00000,1,0,210012310000,201610131800
11G00900,0.0,0.0,,제주도북부중산간,B,11G00000,1,0,210012310000,202311300930
11G00901,33.44734,126.56546,,산천단,C,11G00900,1,0,210012310000,202311300930
11G01000,0.0,0.0,,제주도남부중산간,B,11G00000,1,0,210012310000,202311300930
11G01001,33.33143,126.67846,,한남,C,11G01000,1,0,210012310000,202311300930
11H00000,0.0,0.0,,경상도,A,11000000,1,0,210012310000,199001010000
11H000D1,35.337925,127.7299778,,지리산(동부),D,11H00000,1,0,210012310000,199001010000
11H000D2,36.96291389,128.4856722,,소백산(남쪽),D,11H00000,1,0,210012310000,199001010000
11H000D3,36.01914722,128.6977472,,팔공산,D,11H00000,1,0,210012310000,199001010000
11H000D4,35.82480833,128.1222917,,가야산,D,11H00000,1,0,210012310000,199001010000
11H000D5,35.79299722,129.3419222,,토함산,D,11H00000,1,0,210012310000,199001010000
11H000D6,36.40872222,129.2128611,,주왕산,D,11H00000,1,0,210012310000,199001010000
11H000D7,34.86901111,126.8628028,,가지산,D,11H00000,1,0,210012310000,200203070000
11H000D8,35.21103333,128.5355528,,무학산,D,11H00000,1,0,210012310000,200203070000
11H000D9,36.76684167,128.0702333,,문경새재,D,11H00000,1,0,210012310000,200203070000
11H000DA,36.72061667,129.3046972,,백암산,D,11H00000,1,0,210012310000,200203070000
11H000E1,0.0,0.0,,부산-경주,E,11H00000,1,0,210012310000,199001010000
11H000E2,0.0,0.0,,부산-하동,E,11H00000,1,0,210012310000,199001010000
11H000E3,0.0,0.0,,대구-마산,E,11H00000,1,0,210012310000,199001010000
11H000E4,0.0,0.0,,대구-함양,E,11H00000,1,0,210012310000,199001010000
11H000E5,0.0,0.0,,대구-안동,E,11H00000,1,0,210012310000,199001010000
11H000E8,0.0,0.0,,안동-죽령,E,11H00000,1,0,210012310000,199001010000
11H000E9,0.0,0.0,,경주-추풍령,E,11H00000,1,0,210012310000,199001010000
11H000EA,0.0,0.0,,구미-상주,E,11H00000,1,0,210012310000,200201010000
11H000EB,0.0,0.0,,진주-함양,E,11H00000,1,0,210012310000,200308050000
11H001P0,0.0,0.0,,주왕산,P,11H00000,1,0,210012310000,201004300800
11H001P1,36.3895,129.1627,,주왕산(정상),P,11H001P0,1,0,210012310000,202503051700
11H001P2,36.39407778,129.1421083,,주왕산(탐방안내소),P,11H001P0,1,0,210012310000,201004300800
11H002P0,0.0,0.0,,지리산(동부),P,11H00000,1,0,210012310000,201004300800
11H002P1,35.34213889,127.7333861,,지리산(정상),P,11H002P0,1,0,210012310000,201004300800
11H003P0,0.0,0.0,,소백산,P,11H00000,1,0,210012310000,201004300800
11H003P1,36.9574,128.4844,,소백산(정상),P,11H003P0,1,0,210012310000,202503051700
11H003P2,36.96014444,128.4273722,,소백산(관리사무소),P,11H003P0,1,0,210012310000,201004300800
11H004P0,0.0,0.0,,가야산,P,11H00000,1,0,210012310000,201004300800
11H004P1,35.823125,128.120825,,가야산(정상),P,11H004P0,1,0,210012310000,201004300800
11H005P0,35.62138889,129.00416667,,가지산,P7,11H00000,1,0,210012310000,201002230000
11H005P1,35.6203555,129.0030888,,가지산(정상),P7,11H005P0,1,0,210012310000,202503051700
11H006P0,36.79416667,128.90833333,,청량산,P7,11H00000,1,0,210012310000,201002230000
11H006P1,36.79416667,128.90833333,,청량산(정상),P7,11H006P0,1,0,210012310000,201002230000
11H007P0,36.18277778,128.05777778,,문경새재,P7,11H00000,1,0,210012310000,201002230000
11H007P1,36.18277778,128.05777778,,문경새재(정상),P7,11H007P0,1,0,210012310000,201002230000
11H008P0,36.05194444,128.18,,금오산,P7,11H00000,1,0,210012310000,201002230000
11H008P1,36.0916,128.2998,,금오산(정상),P7,11H008P0,1,0,210012310000,202503051700
11H009P0,36.01638889,128.695,,팔공산,P7,11H00000,1,0,210012310000,201002230000
11H009P1,36.01638889,128.695,,팔공산(정상),P7,11H009P0,1,0,210012310000,201002230000
11H010P0,35.06777778,128.2625,,연화산,P7,11H00000,1,0,210012310000,201002230000
11H010P1,35.071,128.265,,연화산(정상),P7,11H010P0,1,0,210012310000,202503051700
11H011P0,35.71472222,128.525,,비슬산,P8,11H00000,1,0,210012310000,201002230000
11H011P1,35.7156,128.5243,,비슬산(정상),P8,11H011P0,1,0,210012310000,202503051700
11H012P0,35.53888889,129.05416667,,신불산,P8,11H00000,1,0,210012310000,201002230000
11H012P1,35.5397,129.0525,,신불산(정상),P8,11H012P0,1,0,210012310000,202503051700
11H013P0,35.61555556,128.95916667,,운문산,P8,11H00000,1,0,210012310000,201002230000
11H013P1,35.61555556,128.95916667,,운문산(정상),P8,11H013P0,1,0,210012310000,201002230000
11H014P0,35.53666667,128.56027778,,화왕산,P8,11H00000,1,0,210012310000,201002230000
11H014P1,35.5468,128.5325,,화왕산(정상),P8,11H014P0,1,0,210012310000,202503051700
11H015P0,35.70666667,127.78194444,,기백산,P8,11H00000,1,0,210012310000,201002230000
11H015P1,35.70666667,127.78194444,,기백산(정상),P8,11H015P0,1,0,210012310000,201002230000
11H016P0,35.49555556,127.97416667,,황매산,P8,11H00000,1,0,210012310000,201002230000
11H016P1,35.49555556,127.97416667,,황매산(정상),P8,11H016P0,1,0,210012310000,201002230000
11H017P0,35.36361111,127.87694444,,웅석봉,P8,11H00000,1,0,210012310000,201002230000
11H017P1,35.36361111,127.87694444,,웅석봉(정상),P8,11H017P0,1,0,210012310000,201002230000
11H018P0,35.25333333,128.29277778,,방어산,P8,11H00000,1,0,210012310000,201002230000
11H018P1,35.25333333,128.29277778,,방어산(정상),P8,11H018P0,1,0,210012310000,201002230000
11H019P0,35.0875,127.90361111,,봉명산,P8,11H00000,1,0,210012310000,201002230000
11H019P1,35.0859828,127.9150811,,봉명산(정상),P8,11H019P0,1,0,210012310000,202503051700
11H020P0,34.79111111,127.90527778,,호구산,P8,11H00000,1,0,210012310000,201002230000
11H020P1,34.79111111,127.90527778,,호구산(정상),P8,11H020P0,1,0,210012310000,201002230000
11H021P0,37.49805556,130.86777778,,성인봉,P9,11H00000,1,0,210012310000,201002230000
11H021P1,37.49805556,130.86777778,,성인봉(정상),P9,11H021P0,1,0,210012310000,201002230000
11H022P0,36.71388889,129.30527778,,백암산,P9,11H00000,1,0,210012310000,201002230000
11H022P1,36.71388889,129.30527778,,백암산(정상),P9,11H022P0,1,0,210012310000,201002230000
11H023P0,35.75583333,129.3725,,토함산,P9,11H00000,1,0,210012310000,201002230000
11H023P1,35.75583333,129.3725,,토함산(정상),P9,11H023P0,1,0,210012310000,201002230000
11H024P0,35.42027778,128.90305556,,천태산,P9,11H00000,1,0,210012310000,201002230000
11H024P1,35.42027778,128.90305556,,천태산(정상),P9,11H024P0,1,0,210012310000,201002230000
11H025P0,35.38555556,127.94277778,,대성산,P9,11H00000,1,0,210012310000,201002230000
11H025P1,35.38555556,127.94277778,,대성산(정상),P9,11H025P0,1,0,210012310000,201002230000
11H026P0,35.20972222,128.535,,무학산,P9,11H00000,1,0,210012310000,201002230000
11H026P1,35.20972222,128.535,,무학산(정상),P9,11H026P0,1,0,210012310000,201002230000
11H027P0,35.19416667,129.14444444,,장산,P9,11H00000,1,0,210012310000,201002230000
11H027P1,35.19416667,129.14444444,,장산(정상),P9,11H027P0,1,0,210012310000,201002230000
11H028P0,35.28,129.05111111,,금정산,P9,11H00000,1,0,210012310000,201002230000
11H028P1,35.28,129.05111111,,금정산(정상),P9,11H028P0,1,0,210012310000,201002230000
11H029P0,36.4695,127.862,,구병산,P9,11H00000,1,0,210012310000,202503051700
11H030P0,35.76819,129.225521,,남산(고위봉),P9,11H00000,1,0,210012310000,202503051700
11H031P0,36.2789,129.2894,,내연산,P9,11H00000,1,0,210012310000,202503051700
11H032P0,36.669,127.9294,,대야산,P9,11H00000,1,0,210012310000,202503051700
11H033P0,36.7883,128.1009,,주흘산,P7,11H00000,1,0,210012310000,202503051700
11H034P0,36.1183,127.9663,,황악산,P9,11H00000,1,0,210012310000,202503051700
11H035P0,36.8125,128.278,,황장산,P9,11H00000,1,0,210012310000,202503051700
11H036P0,36.7148,128.0046,,희양산,P9,11H00000,1,0,210012310000,202503051700
11H037P0,34.7531,127.9804,,금산,P9,11H00000,1,0,210012310000,202503051700
11H038P0,34.8104,128.4161,,미륵산,P9,11H00000,1,0,210012310000,202503051700
11H039P0,35.545321,128.980166,,재약산,P7,11H00000,1,0,210012310000,202503051700
11H040P0,34.846,128.1853,,지리산(사량도),P9,11H00000,1,0,210012310000,202503051700
11H041P0,35.401319,129.106255,,천성산,P7,11H00000,1,0,210012310000,202503051700
11H042P0,35.6552,127.7554,,황석산,P9,11H00000,1,0,210012310000,202503051700
11H10000,0.0,0.0,,경상북도,A,11000000,1,0,210012310000,201507061100
11H10100,0.0,0.0,,경북북부동해안,B,11H10000,1,0,210012310000,199001010000
11H10101,36.99308611,129.4005833,Uljin,울진,C,11H10100,1,130,210012310000,201610131800
11H10102,36.533298,129.409393,,영덕,C,11H10100,1,0,210012310000,201610131800
11H10200,0.0,0.0,,경북남부동해안,B,11H10000,1,0,210012310000,199001010000
11H10201,36.04694167,129.3687333,Pohang,포항,C,11H10200,1,138,210012310000,201501221100
11H10202,35.84039444,129.2113722,,경주,C,11H10200,1,0,210012310000,201610131800
11H10300,0.0,0.0,,경북북서내륙,B,11H10000,1,0,210012310000,199001010000
11H10301,36.58631111,128.1867667,,문경,C,11H10300,1,0,210012310000,201610131800
11H10302,36.4133,128.1531306,Sangju,상주,C,11H10300,1,137,210012310000,201610131800
11H10303,36.657325,128.45245,,예천,C,11H10300,1,0,210012310000,201610131800
11H10400,0.0,0.0,,경북북동내륙,B,11H10000,1,0,210012310000,199001010000
11H10401,36.87183,128.516876,,영주,C,11H10400,1,0,210012310000,201610131800
11H10402,36.93491667,128.9145667,,봉화,C,11H10400,1,0,210012310000,201610131800
11H10403,36.66618611,129.1116583,,영양,C,11H10400,1,0,210012310000,201610131800
11H10500,0.0,0.0,,경북중북부내륙,B,11H10000,1,0,210012310000,199001010000
11H10501,36.56676111,128.7308417,Andong,안동,C,11H10500,1,136,210012310000,201501221100
11H10502,36.35233611,128.6974111,,의성,C,11H10500,1,0,210012310000,201610131800
11H10503,36.43545833,129.0555861,,청송,C,11H10500,1,0,210012310000,201610131800
11H10600,0.0,0.0,,경북남서내륙,B,11H10000,1,0,210012310000,199001010000
11H10601,36.11930833,128.1187278,,김천,C,11H10600,1,0,210012310000,201610131800
11H10602,36.11581667,128.3426556,,구미,C,11H10600,1,0,210012310000,201610131800
11H10604,35.72483056,128.2616861,,고령,C,11H10600,1,0,210012310000,201610131800
11H10605,35.92236667,128.2816528,,성주,C,11H10600,1,0,210012310000,201610131800
11H10700,0.0,0.0,,대구.경북중남부내륙,B,11H10000,1,0,210012310000,199001010000
11H10701,35.87151944,128.6029722,Daegu,대구,C,11H10700,1,143,210012310000,200902010000
11H10702,35.97662222,128.9411528,,영천,C,11H10700,1,0,210012310000,201610131800
11H10703,35.82963889,128.7406361,,경산,C,11H10700,1,0,210012310000,201610131800
11H10704,35.64765833,128.7345528,,청도,C,11H10700,1,0,210012310000,201610131800
11H10705,35.996275,128.4054417,,칠곡,C,11H10700,1,0,210012310000,201610131800
11H10707,36.2427,128.573625,,군위,C,11H10700,1,0,210012310000,202311300930
11H10800,0.0,0.0,,경북북동산지,B,11H10000,1,0,210012310000,201701130000
11H20000,0.0,0.0,,경상남도,A,11000000,1,0,210012310000,199001010000
11H20100,0.0,0.0,,울산.경남동부내륙,B,11H20000,1,0,210012310000,199001010000
11H20101,35.53866667,129.3547361,Ulsan,울산,C,11H20100,1,152,210012310000,201501221100
11H20102,35.33502778,129.0364306,,양산,C,11H20100,1,0,210012310000,201610131800
11H20200,0.0,0.0,,부산,B,11H20000,1,0,210012310000,199001010000
11H20201,35.104683,129.032013,Busan,부산,C,11H20200,1,159,210012310000,199001010000
11H20300,0.0,0.0,,경남중부남해안,B,11H20000,1,0,210012310000,199001010000
11H20301,35.22753889,128.6819389,Changwon,창원,C,11H20300,1,155,210012310000,201501221100
11H20304,35.22902778,128.8949639,,김해,C,11H20300,1,0,210012310000,201610131800
11H20400,0.0,0.0,,경남서부남해안,B,11H20000,1,0,210012310000,199001010000
11H20401,34.854025,128.4325639,Tongyeong,통영,C,11H20400,1,162,210012310000,201610131800
11H20402,34.93409167,128.0826694,,사천,C,11H20400,1,0,210012310000,201610131800
11H20403,34.878275,128.6237361,,거제,C,11H20400,1,0,210012310000,201610131800
11H20404,34.97262222,128.3211028,,고성,C,11H20400,1,0,210012310000,201610131800
11H20405,34.83682778,127.8929278,,남해,C,11H20400,1,0,210012310000,201610131800
11H20406,34.97010278,127.764125,,하동(해안),C,11H20400,1,0,210012310000,199001010000
11H20500,0.0,0.0,,경남북서내륙,B,11H20000,1,0,210012310000,199001010000
11H20501,35.52043611,127.7251944,,함양,C,11H20500,1,0,210012310000,201610131800
11H20502,35.68631389,127.9092861,,거창,C,11H20500,1,0,210012310000,201610131800
11H20503,35.56683056,128.1653278,,합천,C,11H20500,1,0,210012310000,201610131800
11H20600,0.0,0.0,,경남중부내륙,B,11H20000,1,0,210012310000,199001010000
11H20601,35.50239444,128.7463278,,밀양,C,11H20600,1,0,210012310000,201610131800
11H20602,35.32248333,128.2551528,,의령,C,11H20600,1,0,210012310000,201610131800
11H20603,35.26715833,128.403975,,함안,C,11H20600,1,0,210012310000,201610131800
11H20604,35.54436389,128.4915389,,창녕,C,11H20600,1,0,210012310000,201610131800
11H20700,0.0,0.0,,경남남서내륙,B,11H20000,1,0,210012310000,199001010000
11H20701,35.19170278,128.0831694,Jinju,진주,C,11H20700,1,192,210012310000,201610131800
11H20702,35.06665278,127.7501083,,하동(내륙),C,11H20700,1,0,210012310000,199001010000
11H20703,35.41442222,127.8727583,,산청,C,11H20700,1,0,210012310000,201610131800
11H20704,35.06665278,127.7501083,,하동,C,11H20700,1,0,210012310000,201610131800
11I00000,0.0,0.0,,황해도,A,11000000,1,0,210012310000,199001010000
11I10000,0.0,0.0,,황해북도,A,11000000,1,0,210012310000,199001010000
11I10001,0.0,0.0,,사리원,C,11I00000,1,0,210012310000,201610131800
11I10002,0.0,0.0,,신계,C,11I00000,1,0,210012310000,201610131800
11I20000,0.0,0.0,,황해남도,A,11000000,1,0,210012310000,199001010000
11I20001,0.0,0.0,,해주,C,11I00000,1,0,210012310000,201610131800
11I20002,0.0,0.0,,개성,C,11I00000,1,0,210012310000,200907011200
11I20003,0.0,0.0,,장연(용연),C,11I00000,1,0,210012310000,202007171000
11IJ0000,0.0,0.0,,"평안남북,황해,경기",A,11000000,1,0,210012310000,202007171000
11J00000,0.0,0.0,,평안도,A,11000000,1,0,210012310000,199001010000
11J10000,0.0,0.0,,평안북도,A,11000000,1,0,210012310000,199001010000
11J10001,0.0,0.0,,신의주,C,11J00000,1,0,210012310000,200906150000
11J10002,0.0,0.0,,삭주(수풍),C,11J00000,1,0,210012310000,202007171000
11J10003,0.0,0.0,,구성,C,11J00000,1,0,210012310000,201610131800
11J10004,0.0,0.0,,자성(중강),C,11J00000,1,0,210012310000,202007171000
11J10005,0.0,0.0,,강계,C,11J00000,1,0,210012310000,201610131800
11J10006,0.0,0.0,,희천,C,11J00000,1,0,210012310000,201610131800
11J20000,0.0,0.0,,평안남도,A,11000000,1,0,210012310000,199001010000
11J20001,0.0,0.0,,평양,C,11J00000,1,0,210012310000,200907011200
11J20002,0.0,0.0,,진남포(남포),C,11J00000,1,0,210012310000,202007171000
11J20004,0.0,0.0,,안주,C,11J00000,1,0,210012310000,201610131800
11J20005,0.0,0.0,,양덕,C,11J00000,1,0,210012310000,201610131800
11J30000,0.0,0.0,,자강도,A,11000000,1,0,210012310000,200510010000
11K00000,0.0,0.0,,함경도,A,11000000,1,0,210012310000,199001010000
11K10000,0.0,0.0,,함경북도,A,11000000,1,0,210012310000,199001010000
11K10001,0.0,0.0,,청진,C,11K00000,1,0,210012310000,200907010000
11K10002,0.0,0.0,,웅기(선봉),C,11K00000,1,0,210012310000,202007171000
11K10003,0.0,0.0,,성진(김책),C,11K00000,1,0,210012310000,202007171000
11K10004,0.0,0.0,,무산(삼지연),C,11K00000,1,0,210012310000,202007171000
11K20000,0.0,0.0,,함경남도,A,11000000,1,0,210012310000,199001010000
11K20001,0.0,0.0,,함흥,C,11K00000,1,0,210012310000,200907011200
11K20002,0.0,0.0,,장진,C,11K00000,1,0,210012310000,201610131800
11K20003,0.0,0.0,,북청(신포),C,11K00000,1,0,210012310000,202007171000
11K20004,0.0,0.0,,혜산,C,11K00000,1,0,210012310000,201610131800
11K20005,0.0,0.0,,풍산,C,11K00000,1,0,210012310000,201610131800
11K30000,0.0,0.0,,양강도,A,11K00000,1,0,210012310000,200510010000
11L10000,0.0,0.0,,강원도(북한),A,11000000,1,0,210012310000,200510010000
11L10001,0.0,0.0,,원산,C,11L00000,1,0,210012310000,201610131800
11L10002,0.0,0.0,,고성(장전),C,11L00000,1,0,210012310000,202007171000
11L10003,0.0,0.0,,평강,C,11L00000,1,0,210012310000,201610131800
12000000,0.0,0.0,,해상,H,12000000,1,0,210012310000,199001010000
12A00000,0.0,0.0,,서해,H,12000000,1,0,210012310000,199001010000
12A000L1,0.0,0.0,,인천-덕적,L,,1,0,210012310000,199001010000
12A000L2,0.0,0.0,,인천-이작,L,,1,0,210012310000,200701010000
12A000L5,0.0,0.0,,인천-영종,L,,1,0,210012310000,199001010000
12A000L6,0.0,0.0,,인천-무의,L,,1,0,210012310000,199001010000
12A000L7,0.0,0.0,,인천-대난지도,L,,1,0,210012310000,199001010000
12A000L8,0.0,0.0,,대부-덕적,L,,1,0,210012310000,199001010000
12A000LA,0.0,0.0,,강화-주문,L,,1,0,210012310000,199001010000
12A000LE,0.0,0.0,,대천-영목,L,,1,0,210012310000,199001010000
12A000LF,0.0,0.0,,구도-고파도,L,,1,0,210012310000,199001010000
12A000LG,0.0,0.0,,안흥신항-가의도,L,,1,0,210012310000,199001010000
12A000LH,0.0,0.0,,군산-개야도,L,,1,0,210012310000,199001010000
12A000LI,0.0,0.0,,군산-비안도,L,,1,0,210012310000,199001010000
12A000LJ,0.0,0.0,,군산-연도,L,,1,0,210012310000,199001010000
12A000LK,0.0,0.0,,격포-위도,L,,1,0,210012310000,199001010000
12A000LL,0.0,0.0,,계마-안마,L,,1,0,210012310000,199001010000
12A000LM,0.0,0.0,,봉리-향화,L,,1,0,210012310000,199001010000
12A000LN,0.0,0.0,,점안-진리,L,,1,0,210012310000,199001010000
12A000LO,0.0,0.0,,진도-조도,L,,1,0,210012310000,199001010000
12A000LP,0.0,0.0,,목포구내,L,,1,0,210012310000,199001010000
12A000LQ,0.0,0.0,,시하바다,L,,1,0,210012310000,199001010000
12A000LR,0.0,0.0,,군산-말도,L,,1,0,210012310000,200201010000
12A000LT,0.0,0.0,,도비도-난지도,L,,1,0,210012310000,200308050000
12A000LU,0.0,0.0,,대천-장고도,L,,1,0,210012310000,200308050000
12A000LV,0.0,0.0,,오천-초전,L,,1,0,210012310000,200308050000
12A000M1,0.0,0.0,,덕적-울도,M,12A20000,1,0,210012310000,199001010000
12A000M2,0.0,0.0,,인천-연평,M,,1,0,210012310000,199001010000
12A000M3,0.0,0.0,,인천-백령,M,12A20000,1,0,210012310000,199001010000
12A000M4,0.0,0.0,,인천-제주,M,12A20000,1,0,210012310000,199001010000
12A000MB,0.0,0.0,,백령-인천,M,,1,0,210012310000,199001010000
12A000MC,0.0,0.0,,대천-어청도,M,12A20000,1,0,210012310000,199001010000
12A000MD,0.0,0.0,,군산-어청도,M,12A30000,1,0,210012310000,199001010000
12A000ME,0.0,0.0,,군산-연내,M,,1,0,210012310000,199001010000
12A000MF,0.0,0.0,,목포-홍도,M,12A30000,1,0,210012310000,199001010000
12A000MG,0.0,0.0,,목포-서거차,M,12A30000,1,0,210012310000,199001010000
12A000MH,0.0,0.0,,목포-제주,M,,1,0,210012310000,199001010000
12A000MJ,0.0,0.0,,진도-죽도,M,,1,0,210012310000,200306150000
12A000MK,0.0,0.0,,대천-외연도,M,12A20000,1,0,210012310000,200308050000
12A10000,0.0,0.0,,서해북부,H,12A00000,1,0,210012310000,201409111700
12A10100,0.0,0.0,,서해북부앞바다,H,12A10000,1,0,210012310000,201501221100
12A10200,0.0,0.0,,서해북부먼바다,H,12A10000,1,0,210012310000,201501221100
12A20000,0.0,0.0,,서해중부,H,12A00000,1,0,210012310000,201501221100
12A20100,0.0,0.0,,서해중부앞바다,H,12A20000,1,0,210012310000,201501221100
12A20101,0.0,0.0,,인천·경기북부앞바다,I,12A20100,1,0,210012310000,201501221100
12A20102,0.0,0.0,,인천·경기남부앞바다,I,12A20100,1,0,210012310000,201501221100
12A20103,0.0,0.0,,충남북부앞바다,I,12A20100,1,0,210012310000,201004300800
12A20104,0.0,0.0,,충남남부앞바다,I,12A20100,1,0,210012310000,201004300800
12A20210,0.0,0.0,,서해중부안쪽먼바다,H,12A20000,1,0,210012310000,202107291100
12A20220,0.0,0.0,,서해중부바깥먼바다,H,12A20000,1,0,210012310000,202107291100
12A30000,0.0,0.0,,서해남부,H,12A00000,1,0,210012310000,199001010000
12A30100,0.0,0.0,,서해남부앞바다,H,12A30000,1,0,210012310000,199001010000
12A30211,0.0,0.0,,서해남부북쪽안쪽먼바다,H,12A30000,1,0,210012310000,202107291100
12A30212,0.0,0.0,,서해남부남쪽안쪽먼바다,H,12A30000,1,0,210012310000,202107291100
12A30221,0.0,0.0,,서해남부북쪽바깥먼바다,H,12A30000,1,0,210012310000,202107291100
12A30222,0.0,0.0,,서해남부남쪽바깥먼바다,H,12A30000,1,0,210012310000,202107291100
12B00000,0.0,0.0,,남해,H,12000000,1,0,210012310000,199001010000
12B000K1,0.0,0.0,,중문,K,,1,0,210012310000,199001010000
12B000K2,0.0,0.0,,화순,K,,1,0,210012310000,199001010000
12B000K3,0.0,0.0,,협재.금능,K,,1,0,210012310000,199001010000
12B000L1,0.0,0.0,,통영-의항.비진도,L,,1,0,210012310000,199001010000
12B000L2,0.0,0.0,,가오치-사량도,L,,1,0,210012310000,199001010000
12B000L3,0.0,0.0,,통영-추도.읍덕,L,,1,0,210012310000,199001010000
12B000L4,0.0,0.0,,통영-욕지도,L,,1,0,210012310000,199001010000
12B000L5,0.0,0.0,,통영-매물도,L,,1,0,210012310000,199001010000
12B000L6,0.0,0.0,,진해-실전,L,,1,0,210012310000,200709110000
12B000L8,0.0,0.0,,부산-거제,L,,1,0,210012310000,199001010000
12B000L9,0.0,0.0,,여수-둔병,L,,1,0,210012310000,199001010000
12B000LA,0.0,0.0,,여수-함구미,L,,1,0,210012310000,199001010000
12B000LB,0.0,0.0,,완도-덕우도,L,,1,0,210012310000,199001010000
12B000LC,0.0,0.0,,완도-청산,L,,1,0,210012310000,199001010000
12B000LD,0.0,0.0,,완도-대모도,L,,1,0,210012310000,199001010000
12B000LE,0.0,0.0,,완도-노화도,L,,1,0,210012310000,199001010000
12B000LF,0.0,0.0,,원동-당사도,L,,1,0,210012310000,199001010000
12B000LG,0.0,0.0,,갈두-산양진,L,,1,0,210012310000,199001010000
12B000LH,0.0,0.0,,이목-서넙도,L,,1,0,210012310000,199001010000
12B000LI,0.0,0.0,,성산-우도,L,,1,0,210012310000,199001010000
12B000LJ,0.0,0.0,,한림-비양도,L,,1,0,210012310000,199001010000
12B000LK,0.0,0.0,,모슬포-마라도,L,,1,0,210012310000,199001010000
12B000LL,0.0,0.0,,완도-보길도,L,,1,0,210012310000,199001010000
12B000LM,0.0,0.0,,녹동-사동,L,,1,0,210012310000,200302150000
12B000LN,0.0,0.0,,여수-안도,L,,1,0,210012310000,200302150000
12B000LO,0.0,0.0,,진해-간곡,L,,1,0,210012310000,200406160000
12B000M1,0.0,0.0,,여수-거문도,M,12B10000,1,0,210012310000,199001010000
12B000M2,0.0,0.0,,여수-연도,M,12B10000,1,0,210012310000,199001010000
12B000M3,0.0,0.0,,홍도-목포,M,,1,0,210012310000,199001010000
12B000M4,0.0,0.0,,완도-제주,M,,1,0,210012310000,199001010000
12B000M5,0.0,0.0,,덕우도-초도,M,,1,0,210012310000,199001010000
12B000M6,0.0,0.0,,청산-여서도,M,,1,0,210012310000,199001010000
12B000M7,0.0,0.0,,제주-완도,M,12B10000,1,0,210012310000,199001010000
12B000M8,0.0,0.0,,부산-제주,M,12B20000,1,0,210012310000,199001010000
12B000MB,0.0,0.0,,제주-목포,M,12B10000,1,0,210012310000,199001010000
12B000MC,0.0,0.0,,완도-추자도,M,12B10000,1,0,210012310000,199001010000
12B000MD,0.0,0.0,,완도-여서도,M,12B10000,1,0,210012310000,199001010000
12B000ME,0.0,0.0,,완도-초도,M,12B10000,1,0,210012310000,199001010000
12B000MG,0.0,0.0,,녹동-거문도,M,12B10000,1,0,210012310000,200205210000
12B000MH,0.0,0.0,,제주-여수,M,12B10000,1,0,210012310000,200208230000
12B000MI,0.0,0.0,,제주-녹동,M,12B10000,1,0,210012310000,200208230000
12B10000,0.0,0.0,,남해서부,H,12B00000,1,0,210012310000,201512281700
12B10100,0.0,0.0,,남해서부앞바다,H,12B10000,1,0,210012310000,201004300800
12B10101,0.0,0.0,,전남서부남해앞바다,I,12B10100,1,0,210012310000,201004300800
12B10102,0.0,0.0,,전남동부남해앞바다,I,12B10100,1,0,210012310000,201004300800
12B10201,0.0,0.0,,남해서부서쪽먼바다,H,12B10000,1,0,210012310000,201412101100
12B10202,0.0,0.0,,남해서부동쪽먼바다,H,12B10000,1,0,210012310000,201412101100
12B10300,0.0,0.0,,제주도앞바다,H,12B10000,1,0,210012310000,199001010000
12B10301,0.0,0.0,,제주도동부앞바다,I,12B10300,1,0,210012310000,199001010000
12B10302,0.0,0.0,,제주도북부앞바다,I,12B10300,1,0,210012310000,199001010000
12B10303,0.0,0.0,,제주도남부앞바다,I,12B10300,1,0,210012310000,199001010000
12B10304,0.0,0.0,,제주도서부앞바다,I,12B10300,1,0,210012310000,199001010000
12B10411,0.0,0.0,,제주도남서쪽안쪽먼바다,H,12B10000,1,0,210012310000,202107291100
12B10412,0.0,0.0,,제주도남동쪽안쪽먼바다,H,12B10000,1,0,210012310000,202107291100
12B10420,0.0,0.0,,제주도남쪽바깥먼바다,H,12B10000,1,0,210012310000,202107291100
12B10500,0.0,0.0,,제주도해상,H,12B00000,1,0,210012310000,200810240000
12B20000,0.0,0.0,,남해동부,H,12B00000,1,0,210012310000,199001010000
12B20100,0.0,0.0,,남해동부앞바다,H,12B20000,1,0,210012310000,201004300800
12B20101,0.0,0.0,,경남서부남해앞바다,I,12B20100,1,0,210012310000,201004300800
12B20102,0.0,0.0,,경남중부남해앞바다,I,12B20100,1,0,210012310000,201004300800
12B20103,0.0,0.0,,부산앞바다,I,12B20100,1,0,210012310000,199001010000
12B20104,0.0,0.0,,거제시동부앞바다,I,12B20100,1,0,210012310000,201312101100
12B20210,0.0,0.0,,남해동부안쪽먼바다,H,12B20000,1,0,210012310000,202107291100
12B20220,0.0,0.0,,남해동부바깥먼바다,H,12B20000,1,0,210012310000,202107291100
12C00000,0.0,0.0,,동해,H,12000000,1,0,210012310000,199001010000
12C000M1,0.0,0.0,,속초-울릉,M,12C20000,1,0,210012310000,199001010000
12C000M3,0.0,0.0,,동해-울릉,M,12C20000,1,0,210012310000,199001010000
12C000M5,0.0,0.0,,포항-울릉,M,12C10000,1,0,210012310000,199001010000
12C000M6,0.0,0.0,,후포-울릉,M,,1,0,210012310000,199001010000
12C000M7,0.0,0.0,,울릉-속초,M,,1,0,210012310000,199001010000
12C000M8,0.0,0.0,,울릉-동해,M,,1,0,210012310000,199001010000
12C000M9,0.0,0.0,,울릉-포항,M,,1,0,210012310000,199001010000
12C000MC,0.0,0.0,,울릉-독도,M,12C20000,1,0,210012310000,200507211500
12C10000,0.0,0.0,,동해남부,H,12C00000,1,0,210012310000,201701191130
12C10100,0.0,0.0,,동해남부앞바다,H,12C10000,1,0,210012310000,201701191130
12C10101,0.0,0.0,,울산앞바다,I,12C10100,1,0,210012310000,199001010000
12C10102,0.0,0.0,,경북남부앞바다,I,12C10100,1,0,210012310000,199001010000
12C10103,0.0,0.0,,경북북부앞바다,I,12C10100,1,0,210012310000,199001010000
12C10211,0.0,0.0,,동해남부남쪽안쪽먼바다,H,12C10000,1,0,210012310000,202107291100
12C10212,0.0,0.0,,동해남부북쪽안쪽먼바다,H,12C10000,1,0,210012310000,202107291100
12C10221,0.0,0.0,,동해남부남쪽바깥먼바다,H,12C10000,1,0,210012310000,202107291100
12C10222,0.0,0.0,,동해남부북쪽바깥먼바다,H,12C10000,1,0,210012310000,202107291100
12C20000,0.0,0.0,,동해중부,H,12C00000,1,0,210012310000,199001010000
12C20100,0.0,0.0,,동해중부앞바다,H,12C20000,1,0,210012310000,199001010000
12C20101,0.0,0.0,,강원남부앞바다,I,12C20100,1,0,210012310000,199001010000
12C20102,0.0,0.0,,강원중부앞바다,I,12C20100,1,0,210012310000,199001010000
12C20103,0.0,0.0,,강원북부앞바다,I,12C20100,1,0,210012310000,199001010000
12C20210,0.0,0.0,,동해중부안쪽먼바다,H,12C20000,1,0,210012310000,202107291100
12C20220,0.0,0.0,,동해중부바깥먼바다,H,12C20000,1,0,210012310000,202107291100
12C30000,0.0,0.0,,동해북부,H,12C00000,1,0,210012310000,201409111700
12C30100,0.0,0.0,,동해북부앞바다,H,12C30000,1,0,210012310000,201409111700
12C30200,0.0,0.0,,동해북부먼바다,H,12C30000,1,0,210012310000,201409111700
12D00000,0.0,0.0,,대화퇴,H,12000000,1,0,210012310000,201310150500
12E00000,0.0,0.0,,동중국해,H,12000000,1,0,210012310000,201310150500
12F00000,0.0,0.0,,규슈,H,,1,0,210012310000,199001010000
12F00100,0.0,0.0,,규슈(서해),I,12000000,1,0,210012310000,199001010000
12F00200,0.0,0.0,,규슈(남해),I,12000000,1,0,210012310000,199001010000
12G00000,0.0,0.0,,연해주,H,12000000,1,0,210012310000,201310150500
13000000,0.0,0.0,,육상(북한),A,,1,0,210012310000,200907011200
21F10500,0.0,0.0,,전북북부서해안,B,11F10000,1,0,210012310000,200201010000
21F10501,35.96581111,126.7364528,,군산,C,21F10500,1,0,210012310000,201501221100
21F10502,35.80216667,126.87895,,김제,C,21F10500,1,0,210012310000,201610131800
21F10600,0.0,0.0,,전북남부서해안,B,11F10000,1,0,210012310000,200201010000
21F10601,35.43896111,126.7027222,,고창,C,21F10600,1,0,210012310000,201610131800
21F10602,35.73229722,126.7378833,,부안,C,21F10600,1,0,210012310000,201610131800
21F20100,0.0,0.0,,전남북부서해안,B,11F20000,1,0,210012310000,200201010000
21F20101,35.06475833,126.5168556,,함평,C,21F20100,1,0,210012310000,201610131800
21F20102,35.27624167,126.5116194,,영광,C,21F20100,1,0,210012310000,201610131800
21F20200,0.0,0.0,,전남남부서해안,B,11F20000,1,0,210012310000,200201010000
21F20201,34.48590556,126.263675,Jindo,진도,C,21F20200,1,175,210012310000,201610131800
21F20202,34.57273611,126.5907389,,해남(화원),C,21F20200,1,0,210012310000,200201010000
21F20203,34.53141667,126.3445528,,벽파,C,21F20200,1,0,210012310000,200201010000
21F20800,0.0,0.0,,전남중부서해안,B,11F20000,1,0,210012310000,200201010000
21F20801,34.81271111,126.3925556,Mokpo,목포,C,21F20800,1,0,210012310000,201501221100
21F20802,34.79943611,126.6947111,,영암,C,21F20800,1,0,210012310000,201610131800
21F20803,34.78866944,126.3775694,,신안,C,21F20800,1,0,210012310000,201610131800
21F20804,34.99190833,126.4837528,,무안,C,21F20800,1,0,210012310000,201610131800
22A30101,0.0,0.0,,전북북부앞바다,I,12A30100,1,0,210012310000,200201010000
22A30102,0.0,0.0,,전북남부앞바다,I,12A30100,1,0,210012310000,200201010000
22A30103,0.0,0.0,,전남북부서해앞바다,I,12A30100,1,0,210012310000,200201010000
22A30104,0.0,0.0,,전남중부서해앞바다,I,12A30100,1,0,210012310000,200201010000
22A30105,0.0,0.0,,전남남부서해앞바다,I,12A30100,1,0,210012310000,200201010000
